{
    "errorno": 0,
    "errormsg": "成功",
    "data": {
        "list": [
            {
                "id": "173",
                "script_index": "0",
                "parent_id": "12",
                "name": "海淀",
                "latlng": "39.963477697991,116.31035775162",
                "streets": [
                    {
                        "id": "128",
                        "parent_id": "173",
                        "script_index": "14",
                        "name": "清河",
                        "latlng": "40.036589415743,116.35496752109"
                    },
                    {
                        "id": "7126",
                        "parent_id": "173",
                        "script_index": "57",
                        "name": "小营",
                        "latlng": "40.043323099201,116.34826854796"
                    },
                    {
                        "id": "135",
                        "parent_id": "173",
                        "script_index": "13",
                        "name": "西三旗",
                        "latlng": "40.061182530526,116.33669527412"
                    },
                    {
                        "id": "7134",
                        "parent_id": "173",
                        "script_index": "70",
                        "name": "西二旗",
                        "latlng": "40.059905219116,116.32220577217"
                    },
                    {
                        "id": "9165",
                        "parent_id": "173",
                        "script_index": "75",
                        "name": "安宁庄",
                        "latlng": "40.050313,116.328861"
                    },
                    {
                        "id": "131",
                        "parent_id": "173",
                        "script_index": "3",
                        "name": "上地",
                        "latlng": "40.042639830164,116.31770814901"
                    },
                    {
                        "id": "611",
                        "parent_id": "173",
                        "script_index": "58",
                        "name": "西北旺",
                        "latlng": "40.04727168193,116.27508046308"
                    },
                    {
                        "id": "133",
                        "parent_id": "173",
                        "script_index": "15",
                        "name": "马连洼",
                        "latlng": "40.039023028511,116.28161095388"
                    },
                    {
                        "id": "7136",
                        "parent_id": "173",
                        "script_index": "40",
                        "name": "西苑",
                        "latlng": "40.003302395948,116.29966735991"
                    },
                    {
                        "id": "7117",
                        "parent_id": "173",
                        "script_index": "41",
                        "name": "万泉河",
                        "latlng": "39.992150732487,116.30721766983"
                    },
                    {
                        "id": "620",
                        "parent_id": "173",
                        "script_index": "43",
                        "name": "苏州街",
                        "latlng": "39.983362332768,116.31262073985"
                    },
                    {
                        "id": "793",
                        "parent_id": "173",
                        "script_index": "0",
                        "name": "中关村",
                        "latlng": "39.989791228428,116.32285178121"
                    },
                    {
                        "id": "7124",
                        "parent_id": "173",
                        "script_index": "38",
                        "name": "北大清华",
                        "latlng": "40.000260856616,116.32282509522"
                    },
                    {
                        "id": "139",
                        "parent_id": "173",
                        "script_index": "11",
                        "name": "五道口",
                        "latlng": "39.999467572714,116.34596344452"
                    },
                    {
                        "id": "794",
                        "parent_id": "173",
                        "script_index": "6",
                        "name": "学院路",
                        "latlng": "39.999439043515,116.35916654238"
                    },
                    {
                        "id": "7119",
                        "parent_id": "173",
                        "script_index": "39",
                        "name": "二里庄",
                        "latlng": "40.000095283935,116.37417127408"
                    },
                    {
                        "id": "7127",
                        "parent_id": "173",
                        "script_index": "46",
                        "name": "牡丹园",
                        "latlng": "39.983261983752,116.3767801789"
                    },
                    {
                        "id": "156",
                        "parent_id": "173",
                        "script_index": "25",
                        "name": "北太平庄",
                        "latlng": "39.973180447532,116.37640161032"
                    },
                    {
                        "id": "7138",
                        "parent_id": "173",
                        "script_index": "47",
                        "name": "马甸",
                        "latlng": "39.976044590315,116.38637479766"
                    },
                    {
                        "id": "7133",
                        "parent_id": "173",
                        "script_index": "59",
                        "name": "蓟门桥",
                        "latlng": "39.974000500552,116.35765934054"
                    },
                    {
                        "id": "7672",
                        "parent_id": "173",
                        "script_index": "71",
                        "name": "大钟寺",
                        "latlng": "39.97230012802,116.35119392344"
                    },
                    {
                        "id": "7131",
                        "parent_id": "173",
                        "script_index": "45",
                        "name": "知春路",
                        "latlng": "39.982199860399,116.34255561399"
                    },
                    {
                        "id": "154",
                        "parent_id": "173",
                        "script_index": "12",
                        "name": "双榆树",
                        "latlng": "39.976599778482,116.33090384518"
                    },
                    {
                        "id": "92004",
                        "parent_id": "173",
                        "script_index": "80",
                        "name": "联想桥",
                        "latlng": "39.973028,116.337181"
                    },
                    {
                        "id": "7122",
                        "parent_id": "173",
                        "script_index": "44",
                        "name": "人民大学",
                        "latlng": "39.975503655302,116.32619107041"
                    },
                    {
                        "id": "144",
                        "parent_id": "173",
                        "script_index": "26",
                        "name": "万柳",
                        "latlng": "39.973077613151,116.30337692474"
                    },
                    {
                        "id": "7118",
                        "parent_id": "173",
                        "script_index": "42",
                        "name": "世纪城",
                        "latlng": "39.963990003824,116.29022622645"
                    },
                    {
                        "id": "160",
                        "parent_id": "173",
                        "script_index": "33",
                        "name": "魏公村",
                        "latlng": "39.959523736788,116.32467635801"
                    },
                    {
                        "id": "7130",
                        "parent_id": "173",
                        "script_index": "48",
                        "name": "皂君庙",
                        "latlng": "39.966131347767,116.34447459898"
                    },
                    {
                        "id": "7121",
                        "parent_id": "173",
                        "script_index": "60",
                        "name": "交通大学",
                        "latlng": "39.957528843931,116.35002214083"
                    },
                    {
                        "id": "7135",
                        "parent_id": "173",
                        "script_index": "51",
                        "name": "西直门",
                        "latlng": "39.94670770565,116.36053731719"
                    },
                    {
                        "id": "7129",
                        "parent_id": "173",
                        "script_index": "52",
                        "name": "白石桥",
                        "latlng": "39.944829030011,116.33466143068"
                    },
                    {
                        "id": "164",
                        "parent_id": "173",
                        "script_index": "50",
                        "name": "紫竹桥",
                        "latlng": "39.947845961993,116.31636083771"
                    },
                    {
                        "id": "7116",
                        "parent_id": "173",
                        "script_index": "49",
                        "name": "万寿寺",
                        "latlng": "39.951599943756,116.31895141132"
                    },
                    {
                        "id": "7673",
                        "parent_id": "173",
                        "script_index": "72",
                        "name": "车道沟",
                        "latlng": "39.946920192387,116.31010699723"
                    },
                    {
                        "id": "7674",
                        "parent_id": "173",
                        "script_index": "73",
                        "name": "北洼路",
                        "latlng": "39.941770767038,116.30961902237"
                    },
                    {
                        "id": "92172",
                        "parent_id": "173",
                        "script_index": "76",
                        "name": "厂洼",
                        "latlng": "39.96582214296,116.30991442515"
                    },
                    {
                        "id": "7132",
                        "parent_id": "173",
                        "script_index": "53",
                        "name": "花园桥",
                        "latlng": "39.938210598569,116.31675391145"
                    },
                    {
                        "id": "168",
                        "parent_id": "173",
                        "script_index": "34",
                        "name": "航天桥",
                        "latlng": "39.92945258538,116.31677399887"
                    },
                    {
                        "id": "7675",
                        "parent_id": "173",
                        "script_index": "74",
                        "name": "增光路",
                        "latlng": "39.933978209294,116.32877067693"
                    },
                    {
                        "id": "171",
                        "parent_id": "173",
                        "script_index": "22",
                        "name": "甘家口",
                        "latlng": "39.933275321889,116.34047491565"
                    },
                    {
                        "id": "7123",
                        "parent_id": "173",
                        "script_index": "56",
                        "name": "军博",
                        "latlng": "39.914027179209,116.32939056704"
                    },
                    {
                        "id": "178",
                        "parent_id": "173",
                        "script_index": "10",
                        "name": "公主坟",
                        "latlng": "39.913550288228,116.31661446879"
                    },
                    {
                        "id": "176",
                        "parent_id": "173",
                        "script_index": "20",
                        "name": "万寿路",
                        "latlng": "39.916387660354,116.3015413546"
                    },
                    {
                        "id": "7120",
                        "parent_id": "173",
                        "script_index": "55",
                        "name": "五棵松",
                        "latlng": "39.914023137463,116.28019308462"
                    },
                    {
                        "id": "606",
                        "parent_id": "173",
                        "script_index": "19",
                        "name": "永定路",
                        "latlng": "39.916245572088,116.27096286817"
                    },
                    {
                        "id": "7125",
                        "parent_id": "173",
                        "script_index": "54",
                        "name": "定慧寺",
                        "latlng": "39.930874307269,116.29054293203"
                    },
                    {
                        "id": "7128",
                        "parent_id": "173",
                        "script_index": "18",
                        "name": "田村",
                        "latlng": "39.936152266857,116.26008149675"
                    },
                    {
                        "id": "148",
                        "parent_id": "173",
                        "script_index": "28",
                        "name": "四季青",
                        "latlng": "39.959457652956,116.27637361649"
                    },
                    {
                        "id": "7137",
                        "parent_id": "173",
                        "script_index": "17",
                        "name": "香山",
                        "latlng": "39.99983910433,116.21270504921"
                    },
                    {
                        "id": "800",
                        "parent_id": "173",
                        "script_index": "37",
                        "name": "其他",
                        "latlng": ""
                    },
                    {
                        "id": "92207",
                        "parent_id": "173",
                        "script_index": "81",
                        "name": "苏州桥",
                        "latlng": "39.966253957205,116.31475836962"
                    },
                    {
                        "id": "94082",
                        "parent_id": "173",
                        "script_index": "82",
                        "name": "北航",
                        "latlng": "39.9875863335,116.353497981"
                    },
                    {
                        "id": "94083",
                        "parent_id": "173",
                        "script_index": "83",
                        "name": "玉泉路",
                        "latlng": "39.9346599843,116.259674012"
                    },
                    {
                        "id": "94084",
                        "parent_id": "173",
                        "script_index": "84",
                        "name": "西八里庄",
                        "latlng": "39.9404819767,116.297408144"
                    },
                    {
                        "id": "94085",
                        "parent_id": "173",
                        "script_index": "85",
                        "name": "西山",
                        "latlng": "39.9644311209,116.143567576"
                    },
                    {
                        "id": "94086",
                        "parent_id": "173",
                        "script_index": "86",
                        "name": "明光桥",
                        "latlng": "39.964320105,116.361049586"
                    },
                    {
                        "id": "94087",
                        "parent_id": "173",
                        "script_index": "87",
                        "name": "学院路北",
                        "latlng": "39.9985091046,116.359650655"
                    },
                    {
                        "id": "94088",
                        "parent_id": "173",
                        "script_index": "88",
                        "name": "肖家河",
                        "latlng": "40.022718653,116.289317196"
                    },
                    {
                        "id": "94089",
                        "parent_id": "173",
                        "script_index": "89",
                        "name": "金沟河",
                        "latlng": "39.9265193532,116.272457259"
                    },
                    {
                        "id": "94090",
                        "parent_id": "173",
                        "script_index": "90",
                        "name": "恩济里",
                        "latlng": "39.9360968921,116.292961352"
                    },
                    {
                        "id": "94091",
                        "parent_id": "173",
                        "script_index": "91",
                        "name": "五路居",
                        "latlng": "39.9411725056,116.277984264"
                    }
                ]
            },
            {
                "id": "174",
                "script_index": "1",
                "parent_id": "12",
                "name": "朝阳",
                "latlng": "39.927533915375,116.4500837025",
                "streets": [
                    {
                        "id": "7143",
                        "parent_id": "174",
                        "script_index": "53",
                        "name": "北苑",
                        "latlng": "40.038585770798,116.42519396081"
                    },
                    {
                        "id": "182",
                        "parent_id": "174",
                        "script_index": "40",
                        "name": "来广营",
                        "latlng": "40.022782261779,116.46939462228"
                    },
                    {
                        "id": "184",
                        "parent_id": "174",
                        "script_index": "9",
                        "name": "望京",
                        "latlng": "39.999775405351,116.47578991605"
                    },
                    {
                        "id": "186",
                        "parent_id": "174",
                        "script_index": "49",
                        "name": "花家地",
                        "latlng": "39.993775452129,116.47232250373"
                    },
                    {
                        "id": "188",
                        "parent_id": "174",
                        "script_index": "12",
                        "name": "酒仙桥",
                        "latlng": "39.972685932212,116.49681652212"
                    },
                    {
                        "id": "7146",
                        "parent_id": "174",
                        "script_index": "54",
                        "name": "大山子",
                        "latlng": "39.990321236256,116.49483372563"
                    },
                    {
                        "id": "7142",
                        "parent_id": "174",
                        "script_index": "71",
                        "name": "北沙滩",
                        "latlng": "40.008144296093,116.37679048271"
                    },
                    {
                        "id": "7141",
                        "parent_id": "174",
                        "script_index": "72",
                        "name": "健翔桥",
                        "latlng": "39.993628168862,116.38736089845"
                    },
                    {
                        "id": "196",
                        "parent_id": "174",
                        "script_index": "0",
                        "name": "亚运村",
                        "latlng": "40.001116001792,116.41375310574"
                    },
                    {
                        "id": "198",
                        "parent_id": "174",
                        "script_index": "43",
                        "name": "奥运村",
                        "latlng": "40.0151222255,116.38709087203"
                    },
                    {
                        "id": "193",
                        "parent_id": "174",
                        "script_index": "42",
                        "name": "大屯",
                        "latlng": "40.008429158309,116.41494301955"
                    },
                    {
                        "id": "7148",
                        "parent_id": "174",
                        "script_index": "55",
                        "name": "小营",
                        "latlng": "39.999997244455,116.43088786955"
                    },
                    {
                        "id": "8918",
                        "parent_id": "174",
                        "script_index": "87",
                        "name": "安慧桥",
                        "latlng": "39.994875922189,116.41393609349"
                    },
                    {
                        "id": "200",
                        "parent_id": "174",
                        "script_index": "21",
                        "name": "小关",
                        "latlng": "39.98649696929,116.41862621651"
                    },
                    {
                        "id": "202",
                        "parent_id": "174",
                        "script_index": "10",
                        "name": "安贞",
                        "latlng": "39.976068634875,116.40918759069"
                    },
                    {
                        "id": "205",
                        "parent_id": "174",
                        "script_index": "22",
                        "name": "和平街",
                        "latlng": "39.971894256139,116.43159334492"
                    },
                    {
                        "id": "7149",
                        "parent_id": "174",
                        "script_index": "70",
                        "name": "惠新里",
                        "latlng": "39.986404529601,116.42719556746"
                    },
                    {
                        "id": "7156",
                        "parent_id": "174",
                        "script_index": "57",
                        "name": "芍药居",
                        "latlng": "39.989736266767,116.44237895893"
                    },
                    {
                        "id": "217",
                        "parent_id": "174",
                        "script_index": "41",
                        "name": "太阳宫",
                        "latlng": "39.978641980704,116.45374457673"
                    },
                    {
                        "id": "209",
                        "parent_id": "174",
                        "script_index": "45",
                        "name": "西坝河",
                        "latlng": "39.971024451126,116.44803582409"
                    },
                    {
                        "id": "7151",
                        "parent_id": "174",
                        "script_index": "56",
                        "name": "柳芳",
                        "latlng": "39.960272782337,116.44528852319"
                    },
                    {
                        "id": "211",
                        "parent_id": "174",
                        "script_index": "3",
                        "name": "国展",
                        "latlng": "39.965744171449,116.45336326557"
                    },
                    {
                        "id": "215",
                        "parent_id": "174",
                        "script_index": "18",
                        "name": "左家庄",
                        "latlng": "39.960824740271,116.4510123801"
                    },
                    {
                        "id": "213",
                        "parent_id": "174",
                        "script_index": "1",
                        "name": "三元桥",
                        "latlng": "39.962947972854,116.46271470644"
                    },
                    {
                        "id": "219",
                        "parent_id": "174",
                        "script_index": "6",
                        "name": "燕莎",
                        "latlng": "39.954967181691,116.46984808657"
                    },
                    {
                        "id": "7150",
                        "parent_id": "174",
                        "script_index": "58",
                        "name": "朝阳公园",
                        "latlng": "39.945962509554,116.4896627973"
                    },
                    {
                        "id": "7153",
                        "parent_id": "174",
                        "script_index": "62",
                        "name": "甜水园",
                        "latlng": "39.932826019855,116.48546497788"
                    },
                    {
                        "id": "650",
                        "parent_id": "174",
                        "script_index": "61",
                        "name": "水碓子",
                        "latlng": "39.933102587935,116.47979446818"
                    },
                    {
                        "id": "226",
                        "parent_id": "174",
                        "script_index": "7",
                        "name": "团结湖",
                        "latlng": "39.936236093491,116.47340334572"
                    },
                    {
                        "id": "622",
                        "parent_id": "174",
                        "script_index": "73",
                        "name": "三里屯",
                        "latlng": "39.942459370203,116.46229905616"
                    },
                    {
                        "id": "796",
                        "parent_id": "174",
                        "script_index": "59",
                        "name": "工体",
                        "latlng": "39.938607339927,116.45245885502"
                    },
                    {
                        "id": "224",
                        "parent_id": "174",
                        "script_index": "46",
                        "name": "朝外",
                        "latlng": "39.928434840905,116.45212857878"
                    },
                    {
                        "id": "8916",
                        "parent_id": "174",
                        "script_index": "85",
                        "name": "建外大街",
                        "latlng": "39.914374241151,116.45518872235"
                    },
                    {
                        "id": "7140",
                        "parent_id": "174",
                        "script_index": "60",
                        "name": "东大桥",
                        "latlng": "39.9285705016,116.45691009992"
                    },
                    {
                        "id": "7139",
                        "parent_id": "174",
                        "script_index": "65",
                        "name": "CBD",
                        "latlng": "39.920864484038,116.46483770309"
                    },
                    {
                        "id": "625",
                        "parent_id": "174",
                        "script_index": "77",
                        "name": "呼家楼",
                        "latlng": "39.927924658226,116.46910934169"
                    },
                    {
                        "id": "239",
                        "parent_id": "174",
                        "script_index": "44",
                        "name": "国贸",
                        "latlng": "39.915628396289,116.46677628125"
                    },
                    {
                        "id": "254",
                        "parent_id": "174",
                        "script_index": "14",
                        "name": "双井",
                        "latlng": "39.899495819475,116.4716745224"
                    },
                    {
                        "id": "252",
                        "parent_id": "174",
                        "script_index": "5",
                        "name": "劲松",
                        "latlng": "39.890404026282,116.46034280203"
                    },
                    {
                        "id": "250",
                        "parent_id": "174",
                        "script_index": "11",
                        "name": "潘家园",
                        "latlng": "39.880836979596,116.45585035057"
                    },
                    {
                        "id": "8917",
                        "parent_id": "174",
                        "script_index": "86",
                        "name": "华威桥",
                        "latlng": "39.876868560574,116.467638333"
                    },
                    {
                        "id": "7677",
                        "parent_id": "174",
                        "script_index": "84",
                        "name": "南磨房",
                        "latlng": "39.889672907462,116.48508092633"
                    },
                    {
                        "id": "7157",
                        "parent_id": "174",
                        "script_index": "66",
                        "name": "大望路",
                        "latlng": "39.897404527455,116.48411472778"
                    },
                    {
                        "id": "7154",
                        "parent_id": "174",
                        "script_index": "69",
                        "name": "百子湾",
                        "latlng": "39.906340065711,116.51362106768"
                    },
                    {
                        "id": "7145",
                        "parent_id": "174",
                        "script_index": "67",
                        "name": "四惠",
                        "latlng": "39.914682231312,116.50443615928"
                    },
                    {
                        "id": "234",
                        "parent_id": "174",
                        "script_index": "47",
                        "name": "红庙",
                        "latlng": "39.918139892894,116.48847272357"
                    },
                    {
                        "id": "236",
                        "parent_id": "174",
                        "script_index": "48",
                        "name": "八里庄",
                        "latlng": "39.922052156789,116.5024469812"
                    },
                    {
                        "id": "7155",
                        "parent_id": "174",
                        "script_index": "63",
                        "name": "石佛营",
                        "latlng": "39.938798275409,116.50816112024"
                    },
                    {
                        "id": "7144",
                        "parent_id": "174",
                        "script_index": "64",
                        "name": "十里堡",
                        "latlng": "39.922507513456,116.50923226054"
                    },
                    {
                        "id": "7152",
                        "parent_id": "174",
                        "script_index": "81",
                        "name": "甘露园",
                        "latlng": "39.92255233199,116.52194224992"
                    },
                    {
                        "id": "243",
                        "parent_id": "174",
                        "script_index": "31",
                        "name": "高碑店",
                        "latlng": "39.915549001754,116.53635841249"
                    },
                    {
                        "id": "232",
                        "parent_id": "174",
                        "script_index": "33",
                        "name": "朝青板块",
                        "latlng": "39.930441199176,116.52996532407"
                    },
                    {
                        "id": "7676",
                        "parent_id": "174",
                        "script_index": "83",
                        "name": "姚家园",
                        "latlng": "39.948868594354,116.52232186049"
                    },
                    {
                        "id": "637",
                        "parent_id": "174",
                        "script_index": "74",
                        "name": "东坝",
                        "latlng": "39.96788229927,116.5570704172"
                    },
                    {
                        "id": "7147",
                        "parent_id": "174",
                        "script_index": "68",
                        "name": "定福庄",
                        "latlng": "39.916918072805,116.55739236763"
                    },
                    {
                        "id": "7376",
                        "parent_id": "174",
                        "script_index": "82",
                        "name": "双桥",
                        "latlng": "39.910270021148,116.58361471052"
                    },
                    {
                        "id": "248",
                        "parent_id": "174",
                        "script_index": "30",
                        "name": "管庄",
                        "latlng": "39.917996033677,116.60227119044"
                    },
                    {
                        "id": "246",
                        "parent_id": "174",
                        "script_index": "32",
                        "name": "常营",
                        "latlng": "39.934190874248,116.5938713255"
                    },
                    {
                        "id": "632",
                        "parent_id": "174",
                        "script_index": "76",
                        "name": "豆各庄",
                        "latlng": "39.868654760371,116.56789938873"
                    },
                    {
                        "id": "257",
                        "parent_id": "174",
                        "script_index": "15",
                        "name": "垡头",
                        "latlng": "39.87151469171,116.51927097981"
                    },
                    {
                        "id": "631",
                        "parent_id": "174",
                        "script_index": "75",
                        "name": "十八里店",
                        "latlng": "39.848047531659,116.48866511963"
                    },
                    {
                        "id": "630",
                        "parent_id": "174",
                        "script_index": "78",
                        "name": "小红门",
                        "latlng": "39.834949860467,116.46542120184"
                    },
                    {
                        "id": "9098",
                        "parent_id": "174",
                        "script_index": "88",
                        "name": "北工大",
                        "latlng": "39.883606340015,116.4910871665"
                    },
                    {
                        "id": "9099",
                        "parent_id": "174",
                        "script_index": "89",
                        "name": "永安里",
                        "latlng": "39.914423025258,116.45699355538"
                    },
                    {
                        "id": "9193",
                        "parent_id": "174",
                        "script_index": "90",
                        "name": "媒体村",
                        "latlng": "40.039237,116.422723"
                    },
                    {
                        "id": "9194",
                        "parent_id": "174",
                        "script_index": "100",
                        "name": "十里河",
                        "latlng": "39.864332,116.472455"
                    },
                    {
                        "id": "92173",
                        "parent_id": "174",
                        "script_index": "122",
                        "name": "孙河",
                        "latlng": "40.051409454225,116.54104117995"
                    },
                    {
                        "id": "92216",
                        "parent_id": "174",
                        "script_index": "123",
                        "name": "国美第一城",
                        "latlng": "39.938386544496,116.52327495479"
                    },
                    {
                        "id": "92217",
                        "parent_id": "174",
                        "script_index": "124",
                        "name": "华纺易城",
                        "latlng": "39.935146291972,116.51959179161"
                    },
                    {
                        "id": "92225",
                        "parent_id": "174",
                        "script_index": "125",
                        "name": "惠新西街",
                        "latlng": "39.990434993014,116.42359751942"
                    },
                    {
                        "id": "92228",
                        "parent_id": "174",
                        "script_index": "126",
                        "name": "欢乐谷",
                        "latlng": "39.874938792563,116.50066447145"
                    },
                    {
                        "id": "94500",
                        "parent_id": "174",
                        "script_index": "127",
                        "name": "南沙滩",
                        "latlng": "40.0056435396,116.382645569"
                    },
                    {
                        "id": "94518",
                        "parent_id": "174",
                        "script_index": "91",
                        "name": "红军营南路",
                        "latlng": "40.0382459663,116.443269819"
                    },
                    {
                        "id": "802",
                        "parent_id": "174",
                        "script_index": "52",
                        "name": "其他",
                        "latlng": ""
                    }
                ]
            },
            {
                "id": "175",
                "script_index": "2",
                "parent_id": "12",
                "name": "东城",
                "latlng": "39.934822619936,116.42273855844",
                "streets": [
                    {
                        "id": "267",
                        "parent_id": "175",
                        "script_index": "0",
                        "name": "东直门",
                        "latlng": "39.946470720399,116.44170606809"
                    },
                    {
                        "id": "259",
                        "parent_id": "175",
                        "script_index": "9",
                        "name": "和平里",
                        "latlng": "39.961987721875,116.42921961845"
                    },
                    {
                        "id": "263",
                        "parent_id": "175",
                        "script_index": "10",
                        "name": "雍和宫",
                        "latlng": "39.954333413762,116.42324272634"
                    },
                    {
                        "id": "261",
                        "parent_id": "175",
                        "script_index": "16",
                        "name": "安定门",
                        "latlng": "39.953703495378,116.41390072898"
                    },
                    {
                        "id": "272",
                        "parent_id": "175",
                        "script_index": "2",
                        "name": "交道口",
                        "latlng": "39.946518396078,116.41527768105"
                    },
                    {
                        "id": "265",
                        "parent_id": "175",
                        "script_index": "1",
                        "name": "北新桥",
                        "latlng": "39.948441356788,116.43052834471"
                    },
                    {
                        "id": "7159",
                        "parent_id": "175",
                        "script_index": "18",
                        "name": "海运仓",
                        "latlng": "39.942444701702,116.43373104219"
                    },
                    {
                        "id": "270",
                        "parent_id": "175",
                        "script_index": "4",
                        "name": "东四十条",
                        "latlng": "39.939645348544,116.43897996653"
                    },
                    {
                        "id": "282",
                        "parent_id": "175",
                        "script_index": "14",
                        "name": "东四",
                        "latlng": "39.934842717934,116.42448509679"
                    },
                    {
                        "id": "277",
                        "parent_id": "175",
                        "script_index": "6",
                        "name": "朝阳门",
                        "latlng": "39.930009598954,116.43997966191"
                    },
                    {
                        "id": "286",
                        "parent_id": "175",
                        "script_index": "7",
                        "name": "建国门",
                        "latlng": "39.915636773899,116.44093522545"
                    },
                    {
                        "id": "284",
                        "parent_id": "175",
                        "script_index": "13",
                        "name": "东单",
                        "latlng": "39.915587401393,116.42586515922"
                    },
                    {
                        "id": "279",
                        "parent_id": "175",
                        "script_index": "12",
                        "name": "王府井",
                        "latlng": "39.920531570585,116.41727736807"
                    },
                    {
                        "id": "7160",
                        "parent_id": "175",
                        "script_index": "20",
                        "name": "灯市口",
                        "latlng": "39.925148434633,116.41978368836"
                    },
                    {
                        "id": "274",
                        "parent_id": "175",
                        "script_index": "3",
                        "name": "景山",
                        "latlng": "39.935142120554,116.41387646339"
                    },
                    {
                        "id": "7158",
                        "parent_id": "175",
                        "script_index": "19",
                        "name": "沙滩",
                        "latlng": "39.931987853619,116.40961051989"
                    },
                    {
                        "id": "9103",
                        "parent_id": "175",
                        "script_index": "21",
                        "name": "鼓楼",
                        "latlng": "39.938574,116.421885"
                    },
                    {
                        "id": "94123",
                        "parent_id": "175",
                        "script_index": "22",
                        "name": "东直门外",
                        "latlng": "39.9466516097,116.447202474"
                    },
                    {
                        "id": "94124",
                        "parent_id": "175",
                        "script_index": "23",
                        "name": "北京站",
                        "latlng": "39.9111651554,116.436246471"
                    },
                    {
                        "id": "804",
                        "parent_id": "175",
                        "script_index": "17",
                        "name": "其他",
                        "latlng": ""
                    }
                ]
            },
            {
                "id": "176",
                "script_index": "3",
                "parent_id": "12",
                "name": "西城",
                "latlng": "39.918546724152,116.37286212996",
                "streets": [
                    {
                        "id": "288",
                        "parent_id": "176",
                        "script_index": "8",
                        "name": "西直门",
                        "latlng": "39.946657610088,116.36549759017"
                    },
                    {
                        "id": "290",
                        "parent_id": "176",
                        "script_index": "9",
                        "name": "新街口",
                        "latlng": "39.947346370112,116.37761319297"
                    },
                    {
                        "id": "659",
                        "parent_id": "176",
                        "script_index": "28",
                        "name": "积水潭",
                        "latlng": "39.954090556859,116.37929128433"
                    },
                    {
                        "id": "7166",
                        "parent_id": "176",
                        "script_index": "18",
                        "name": "小西天",
                        "latlng": "39.959640159347,116.37776080106"
                    },
                    {
                        "id": "292",
                        "parent_id": "176",
                        "script_index": "16",
                        "name": "德胜门",
                        "latlng": "39.956074743037,116.38589747755"
                    },
                    {
                        "id": "7162",
                        "parent_id": "176",
                        "script_index": "20",
                        "name": "六铺炕",
                        "latlng": "39.960111195885,116.39670818401"
                    },
                    {
                        "id": "7163",
                        "parent_id": "176",
                        "script_index": "19",
                        "name": "后海",
                        "latlng": "39.949064015388,116.38820485793"
                    },
                    {
                        "id": "296",
                        "parent_id": "176",
                        "script_index": "10",
                        "name": "什刹海",
                        "latlng": "39.940550251559,116.3961824179"
                    },
                    {
                        "id": "318",
                        "parent_id": "176",
                        "script_index": "7",
                        "name": "西四",
                        "latlng": "39.931946283872,116.37951843313"
                    },
                    {
                        "id": "316",
                        "parent_id": "176",
                        "script_index": "6",
                        "name": "西单",
                        "latlng": "39.917920582536,116.38050684179"
                    },
                    {
                        "id": "7164",
                        "parent_id": "176",
                        "script_index": "27",
                        "name": "复兴门",
                        "latlng": "39.91375302443,116.36441645395"
                    },
                    {
                        "id": "314",
                        "parent_id": "176",
                        "script_index": "14",
                        "name": "金融街",
                        "latlng": "39.922002801142,116.36668394042"
                    },
                    {
                        "id": "305",
                        "parent_id": "176",
                        "script_index": "4",
                        "name": "阜成门",
                        "latlng": "39.930057069491,116.36165123052"
                    },
                    {
                        "id": "7165",
                        "parent_id": "176",
                        "script_index": "24",
                        "name": "官园",
                        "latlng": "39.937903196024,116.36754353524"
                    },
                    {
                        "id": "7169",
                        "parent_id": "176",
                        "script_index": "21",
                        "name": "车公庄",
                        "latlng": "39.938382270835,116.35886212413"
                    },
                    {
                        "id": "7168",
                        "parent_id": "176",
                        "script_index": "23",
                        "name": "百万庄",
                        "latlng": "39.933734978517,116.34562480497"
                    },
                    {
                        "id": "303",
                        "parent_id": "176",
                        "script_index": "5",
                        "name": "展览路",
                        "latlng": "39.931650014833,116.35104004949"
                    },
                    {
                        "id": "308",
                        "parent_id": "176",
                        "script_index": "3",
                        "name": "月坛",
                        "latlng": "39.919872714789,116.35560685773"
                    },
                    {
                        "id": "310",
                        "parent_id": "176",
                        "script_index": "2",
                        "name": "南礼士路",
                        "latlng": "39.915813672025,116.35871086159"
                    },
                    {
                        "id": "7161",
                        "parent_id": "176",
                        "script_index": "25",
                        "name": "三里河",
                        "latlng": "39.9195637225,116.34624312233"
                    },
                    {
                        "id": "7167",
                        "parent_id": "176",
                        "script_index": "26",
                        "name": "木樨地",
                        "latlng": "39.91355866109,116.34497066936"
                    },
                    {
                        "id": "320",
                        "parent_id": "176",
                        "script_index": "1",
                        "name": "西便门",
                        "latlng": "39.906889247038,116.35967056602"
                    },
                    {
                        "id": "94104",
                        "parent_id": "176",
                        "script_index": "29",
                        "name": "马甸",
                        "latlng": "39.9810305126,116.38635081"
                    },
                    {
                        "id": "94105",
                        "parent_id": "176",
                        "script_index": "30",
                        "name": "鼓楼",
                        "latlng": "39.9473409004,116.402296002"
                    },
                    {
                        "id": "94106",
                        "parent_id": "176",
                        "script_index": "31",
                        "name": "地安门",
                        "latlng": "39.9420574732,116.402096129"
                    },
                    {
                        "id": "94107",
                        "parent_id": "176",
                        "script_index": "32",
                        "name": "真武庙",
                        "latlng": "39.9103389348,116.35331796"
                    },
                    {
                        "id": "806",
                        "parent_id": "176",
                        "script_index": "17",
                        "name": "其他",
                        "latlng": ""
                    }
                ]
            },
            {
                "id": "177",
                "script_index": "4",
                "parent_id": "12",
                "name": "崇文",
                "latlng": "39.894195639709,116.43833528258",
                "streets": [
                    {
                        "id": "322",
                        "parent_id": "177",
                        "script_index": "0",
                        "name": "前门",
                        "latlng": "39.905032547636,116.40683964145"
                    },
                    {
                        "id": "7171",
                        "parent_id": "177",
                        "script_index": "2",
                        "name": "崇文门",
                        "latlng": "39.907339478183,116.42452500289"
                    },
                    {
                        "id": "7174",
                        "parent_id": "177",
                        "script_index": "4",
                        "name": "花市",
                        "latlng": "39.903611424516,116.43343036343"
                    },
                    {
                        "id": "7172",
                        "parent_id": "177",
                        "script_index": "8",
                        "name": "广渠门",
                        "latlng": "39.899544959332,116.45061326428"
                    },
                    {
                        "id": "7170",
                        "parent_id": "177",
                        "script_index": "10",
                        "name": "光明楼",
                        "latlng": "39.890652926931,116.44514548273"
                    },
                    {
                        "id": "331",
                        "parent_id": "177",
                        "script_index": "9",
                        "name": "法华寺",
                        "latlng": "39.893693943833,116.43110220428"
                    },
                    {
                        "id": "329",
                        "parent_id": "177",
                        "script_index": "5",
                        "name": "体育馆路",
                        "latlng": "39.890023522135,116.43225982667"
                    },
                    {
                        "id": "333",
                        "parent_id": "177",
                        "script_index": "3",
                        "name": "龙潭湖",
                        "latlng": "39.887001936845,116.44322372785"
                    },
                    {
                        "id": "326",
                        "parent_id": "177",
                        "script_index": "1",
                        "name": "天坛",
                        "latlng": "39.889951330391,116.41984898663"
                    },
                    {
                        "id": "336",
                        "parent_id": "177",
                        "script_index": "6",
                        "name": "永定门",
                        "latlng": "39.877636643396,116.40618327149"
                    },
                    {
                        "id": "7173",
                        "parent_id": "177",
                        "script_index": "11",
                        "name": "沙子口",
                        "latlng": "39.871324183728,116.40715676714"
                    },
                    {
                        "id": "94101",
                        "parent_id": "177",
                        "script_index": "12",
                        "name": "新世界",
                        "latlng": "39.9035109364,116.424053321"
                    },
                    {
                        "id": "94102",
                        "parent_id": "177",
                        "script_index": "13",
                        "name": "东花市",
                        "latlng": "39.9052246248,116.438190224"
                    },
                    {
                        "id": "94103",
                        "parent_id": "177",
                        "script_index": "14",
                        "name": "磁器口",
                        "latlng": "39.8987714139,116.424866197"
                    },
                    {
                        "id": "808",
                        "parent_id": "177",
                        "script_index": "7",
                        "name": "其他",
                        "latlng": ""
                    }
                ]
            },
            {
                "id": "178",
                "script_index": "5",
                "parent_id": "12",
                "name": "宣武",
                "latlng": "39.878309806489,116.35859459646",
                "streets": [
                    {
                        "id": "348",
                        "parent_id": "178",
                        "script_index": "21",
                        "name": "广安门",
                        "latlng": "39.894903289354,116.35372460244"
                    },
                    {
                        "id": "7179",
                        "parent_id": "178",
                        "script_index": "18",
                        "name": "西客站",
                        "latlng": "39.899195222379,116.33438234672"
                    },
                    {
                        "id": "674",
                        "parent_id": "178",
                        "script_index": "19",
                        "name": "马连道",
                        "latlng": "39.889824606609,116.33334595428"
                    },
                    {
                        "id": "7178",
                        "parent_id": "178",
                        "script_index": "20",
                        "name": "红莲",
                        "latlng": "39.890097722653,116.34064159802"
                    },
                    {
                        "id": "358",
                        "parent_id": "178",
                        "script_index": "11",
                        "name": "白纸坊",
                        "latlng": "39.884328933051,116.36553050168"
                    },
                    {
                        "id": "7176",
                        "parent_id": "178",
                        "script_index": "22",
                        "name": "南菜园",
                        "latlng": "39.880184318707,116.35980759231"
                    },
                    {
                        "id": "7177",
                        "parent_id": "178",
                        "script_index": "23",
                        "name": "右安门",
                        "latlng": "39.879008843901,116.37063118132"
                    },
                    {
                        "id": "7678",
                        "parent_id": "178",
                        "script_index": "24",
                        "name": "白广路",
                        "latlng": "39.88984799375,116.36520715354"
                    },
                    {
                        "id": "350",
                        "parent_id": "178",
                        "script_index": "10",
                        "name": "牛街",
                        "latlng": "39.892378514077,116.36998463766"
                    },
                    {
                        "id": "338",
                        "parent_id": "178",
                        "script_index": "4",
                        "name": "长椿街",
                        "latlng": "39.899949933154,116.36978428169"
                    },
                    {
                        "id": "340",
                        "parent_id": "178",
                        "script_index": "7",
                        "name": "宣武门",
                        "latlng": "39.905558473669,116.38107296182"
                    },
                    {
                        "id": "352",
                        "parent_id": "178",
                        "script_index": "2",
                        "name": "菜市口",
                        "latlng": "39.895122410887,116.38061359744"
                    },
                    {
                        "id": "361",
                        "parent_id": "178",
                        "script_index": "12",
                        "name": "陶然亭",
                        "latlng": "39.885116235619,116.38846150358"
                    },
                    {
                        "id": "354",
                        "parent_id": "178",
                        "script_index": "3",
                        "name": "虎坊桥",
                        "latlng": "39.895736056389,116.39110272291"
                    },
                    {
                        "id": "356",
                        "parent_id": "178",
                        "script_index": "6",
                        "name": "天桥",
                        "latlng": "39.890488986294,116.40435299952"
                    },
                    {
                        "id": "7175",
                        "parent_id": "178",
                        "script_index": "17",
                        "name": "前门",
                        "latlng": "39.90624388006,116.40336588928"
                    },
                    {
                        "id": "342",
                        "parent_id": "178",
                        "script_index": "5",
                        "name": "和平门",
                        "latlng": "39.906780772281,116.39073888219"
                    },
                    {
                        "id": "92226",
                        "parent_id": "178",
                        "script_index": "25",
                        "name": "天宁寺",
                        "latlng": "36.104400891539,114.35631006038"
                    },
                    {
                        "id": "94094",
                        "parent_id": "178",
                        "script_index": "26",
                        "name": "广安门外",
                        "latlng": "39.8957293658,116.347098991"
                    },
                    {
                        "id": "94095",
                        "parent_id": "178",
                        "script_index": "27",
                        "name": "广安门内",
                        "latlng": "39.9021412829,116.371837786"
                    },
                    {
                        "id": "94096",
                        "parent_id": "178",
                        "script_index": "28",
                        "name": "大观园",
                        "latlng": "39.8768756523,116.362794005"
                    },
                    {
                        "id": "94097",
                        "parent_id": "178",
                        "script_index": "29",
                        "name": "椿树街道",
                        "latlng": "39.9051850505,116.382500313"
                    },
                    {
                        "id": "94098",
                        "parent_id": "178",
                        "script_index": "30",
                        "name": "珠市口",
                        "latlng": "39.8977041109,116.404467027"
                    },
                    {
                        "id": "94099",
                        "parent_id": "178",
                        "script_index": "31",
                        "name": "大栅栏",
                        "latlng": "39.9022355184,116.402814414"
                    },
                    {
                        "id": "810",
                        "parent_id": "178",
                        "script_index": "16",
                        "name": "其他",
                        "latlng": ""
                    }
                ]
            },
            {
                "id": "179",
                "script_index": "6",
                "parent_id": "12",
                "name": "丰台",
                "latlng": "39.864860664573,116.2926573859",
                "streets": [
                    {
                        "id": "7182",
                        "parent_id": "179",
                        "script_index": "16",
                        "name": "六里桥",
                        "latlng": "39.890590549763,116.31641102659"
                    },
                    {
                        "id": "7195",
                        "parent_id": "179",
                        "script_index": "18",
                        "name": "西客站",
                        "latlng": "39.89818882539,116.32768009321"
                    },
                    {
                        "id": "7199",
                        "parent_id": "179",
                        "script_index": "17",
                        "name": "马连道",
                        "latlng": "39.879668506087,116.33713968554"
                    },
                    {
                        "id": "7181",
                        "parent_id": "179",
                        "script_index": "32",
                        "name": "丽泽桥",
                        "latlng": "39.872805416019,116.31811659215"
                    },
                    {
                        "id": "7193",
                        "parent_id": "179",
                        "script_index": "33",
                        "name": "菜户营",
                        "latlng": "39.870117164101,116.35573934786"
                    },
                    {
                        "id": "376",
                        "parent_id": "179",
                        "script_index": "0",
                        "name": "玉泉营",
                        "latlng": "39.852210902045,116.34977927722"
                    },
                    {
                        "id": "7192",
                        "parent_id": "179",
                        "script_index": "25",
                        "name": "草桥",
                        "latlng": "39.851857387366,116.36579679543"
                    },
                    {
                        "id": "399",
                        "parent_id": "179",
                        "script_index": "8",
                        "name": "右安门",
                        "latlng": "39.871124920596,116.37115368407"
                    },
                    {
                        "id": "379",
                        "parent_id": "179",
                        "script_index": "9",
                        "name": "马家堡",
                        "latlng": "39.856825478892,116.37797988546"
                    },
                    {
                        "id": "7196",
                        "parent_id": "179",
                        "script_index": "26",
                        "name": "角门",
                        "latlng": "39.852487367179,116.38674275714"
                    },
                    {
                        "id": "7191",
                        "parent_id": "179",
                        "script_index": "27",
                        "name": "洋桥",
                        "latlng": "39.86336908356,116.39313697682"
                    },
                    {
                        "id": "383",
                        "parent_id": "179",
                        "script_index": "10",
                        "name": "西罗园",
                        "latlng": "39.867234718622,116.39751198351"
                    },
                    {
                        "id": "7190",
                        "parent_id": "179",
                        "script_index": "28",
                        "name": "木樨园",
                        "latlng": "39.864635005626,116.40816540751"
                    },
                    {
                        "id": "7197",
                        "parent_id": "179",
                        "script_index": "35",
                        "name": "赵公口",
                        "latlng": "39.863425957621,116.41668709934"
                    },
                    {
                        "id": "7183",
                        "parent_id": "179",
                        "script_index": "19",
                        "name": "刘家窑",
                        "latlng": "39.863801457757,116.42857307748"
                    },
                    {
                        "id": "7194",
                        "parent_id": "179",
                        "script_index": "20",
                        "name": "蒲黄榆",
                        "latlng": "39.871877567408,116.42629174584"
                    },
                    {
                        "id": "371",
                        "parent_id": "179",
                        "script_index": "1",
                        "name": "方庄",
                        "latlng": "39.87140603962,116.44475914369"
                    },
                    {
                        "id": "7187",
                        "parent_id": "179",
                        "script_index": "22",
                        "name": "左安门",
                        "latlng": "39.87640014958,116.44605386586"
                    },
                    {
                        "id": "7188",
                        "parent_id": "179",
                        "script_index": "29",
                        "name": "成寿寺",
                        "latlng": "39.857295444521,116.4520844201"
                    },
                    {
                        "id": "7185",
                        "parent_id": "179",
                        "script_index": "21",
                        "name": "宋家庄",
                        "latlng": "39.853301524237,116.43490306465"
                    },
                    {
                        "id": "386",
                        "parent_id": "179",
                        "script_index": "11",
                        "name": "大红门",
                        "latlng": "39.843310937438,116.41292244637"
                    },
                    {
                        "id": "678",
                        "parent_id": "179",
                        "script_index": "39",
                        "name": "南苑",
                        "latlng": "39.813263795466,116.40655090598"
                    },
                    {
                        "id": "7684",
                        "parent_id": "179",
                        "script_index": "45",
                        "name": "和义",
                        "latlng": "39.820232190404,116.4124730792"
                    },
                    {
                        "id": "7683",
                        "parent_id": "179",
                        "script_index": "44",
                        "name": "东高地",
                        "latlng": "39.811935512392,116.42423848672"
                    },
                    {
                        "id": "7189",
                        "parent_id": "179",
                        "script_index": "37",
                        "name": "新发地",
                        "latlng": "39.822928707151,116.3494016046"
                    },
                    {
                        "id": "682",
                        "parent_id": "179",
                        "script_index": "36",
                        "name": "花乡",
                        "latlng": "39.837251645246,116.31878288495"
                    },
                    {
                        "id": "401",
                        "parent_id": "179",
                        "script_index": "34",
                        "name": "世界公园",
                        "latlng": "39.816006210408,116.29586509073"
                    },
                    {
                        "id": "681",
                        "parent_id": "179",
                        "script_index": "38",
                        "name": "科技园区",
                        "latlng": "39.836879250917,116.29532640103"
                    },
                    {
                        "id": "7184",
                        "parent_id": "179",
                        "script_index": "30",
                        "name": "北大地",
                        "latlng": "39.865446151526,116.29124417024"
                    },
                    {
                        "id": "7681",
                        "parent_id": "179",
                        "script_index": "42",
                        "name": "七里庄",
                        "latlng": "39.866318611052,116.29816071527"
                    },
                    {
                        "id": "394",
                        "parent_id": "179",
                        "script_index": "2",
                        "name": "丰台路",
                        "latlng": "39.874514921533,116.28943172961"
                    },
                    {
                        "id": "7180",
                        "parent_id": "179",
                        "script_index": "31",
                        "name": "丰台体育馆",
                        "latlng": "39.871941513699,116.28524503714"
                    },
                    {
                        "id": "7680",
                        "parent_id": "179",
                        "script_index": "41",
                        "name": "嘉园",
                        "latlng": "39.851582882745,116.37200461044"
                    },
                    {
                        "id": "7186",
                        "parent_id": "179",
                        "script_index": "24",
                        "name": "岳各庄",
                        "latlng": "39.886631581751,116.28261693796"
                    },
                    {
                        "id": "7198",
                        "parent_id": "179",
                        "script_index": "23",
                        "name": "青塔",
                        "latlng": "39.896154659162,116.27057676906"
                    },
                    {
                        "id": "7682",
                        "parent_id": "179",
                        "script_index": "43",
                        "name": "五里店",
                        "latlng": "39.864936677414,116.26331484137"
                    },
                    {
                        "id": "391",
                        "parent_id": "179",
                        "script_index": "3",
                        "name": "卢沟桥",
                        "latlng": "39.853536483903,116.23959145605"
                    },
                    {
                        "id": "389",
                        "parent_id": "179",
                        "script_index": "5",
                        "name": "长辛店",
                        "latlng": "39.832338253126,116.21540639578"
                    },
                    {
                        "id": "7679",
                        "parent_id": "179",
                        "script_index": "40",
                        "name": "云岗",
                        "latlng": "39.816465257871,116.16916593372"
                    },
                    {
                        "id": "9097",
                        "parent_id": "179",
                        "script_index": "46",
                        "name": "丰益桥",
                        "latlng": "39.864035080305,116.32327258038"
                    },
                    {
                        "id": "9134",
                        "parent_id": "179",
                        "script_index": "47",
                        "name": "新宫",
                        "latlng": "39.820398,116.365798"
                    },
                    {
                        "id": "92208",
                        "parent_id": "179",
                        "script_index": "48",
                        "name": "怡海花园",
                        "latlng": "39.839250104093,116.30731536823"
                    },
                    {
                        "id": "92209",
                        "parent_id": "179",
                        "script_index": "49",
                        "name": "看丹桥",
                        "latlng": "39.847432342366,116.29235435159"
                    },
                    {
                        "id": "812",
                        "parent_id": "179",
                        "script_index": "15",
                        "name": "其他",
                        "latlng": ""
                    },
                    {
                        "id": "92227",
                        "parent_id": "179",
                        "script_index": "50",
                        "name": "科丰桥",
                        "latlng": "39.837743899236,116.29703178917"
                    },
                    {
                        "id": "92238",
                        "parent_id": "179",
                        "script_index": "51",
                        "name": "太平桥",
                        "latlng": "23.031164409188,120.22187475981"
                    },
                    {
                        "id": "92273",
                        "parent_id": "179",
                        "script_index": "52",
                        "name": "总部基地",
                        "latlng": "39.8270723404,116.291416626"
                    },
                    {
                        "id": "93616",
                        "parent_id": "179",
                        "script_index": "53",
                        "name": "东大街",
                        "latlng": "39.9067904233,116.42741487"
                    },
                    {
                        "id": "94077",
                        "parent_id": "179",
                        "script_index": "54",
                        "name": "东铁匠营",
                        "latlng": "39.8652226197,116.420538431"
                    },
                    {
                        "id": "94078",
                        "parent_id": "179",
                        "script_index": "55",
                        "name": "莲花池",
                        "latlng": "39.8951233479,116.328315333"
                    },
                    {
                        "id": "94524",
                        "parent_id": "179",
                        "script_index": "56",
                        "name": "王佐",
                        "latlng": "39.8078078002,116.161826803"
                    },
                    {
                        "id": "94525",
                        "parent_id": "179",
                        "script_index": "57",
                        "name": "石榴庄",
                        "latlng": "39.8496907481,116.431694936"
                    }
                ]
            },
            {
                "id": "180",
                "script_index": "7",
                "parent_id": "12",
                "name": "石景山",
                "latlng": "39.921532512728,116.20544598602",
                "streets": [
                    {
                        "id": "7202",
                        "parent_id": "180",
                        "script_index": "14",
                        "name": "玉泉路",
                        "latlng": "39.913530082705,116.25930907815"
                    },
                    {
                        "id": "416",
                        "parent_id": "180",
                        "script_index": "4",
                        "name": "老山",
                        "latlng": "39.91624633687,116.22754962019"
                    },
                    {
                        "id": "7685",
                        "parent_id": "180",
                        "script_index": "17",
                        "name": "八宝山",
                        "latlng": "39.913584204298,116.24857704244"
                    },
                    {
                        "id": "414",
                        "parent_id": "180",
                        "script_index": "3",
                        "name": "鲁谷",
                        "latlng": "39.908657826326,116.22932853968"
                    },
                    {
                        "id": "7203",
                        "parent_id": "180",
                        "script_index": "13",
                        "name": "衙门口",
                        "latlng": "39.899023812493,116.22445134263"
                    },
                    {
                        "id": "412",
                        "parent_id": "180",
                        "script_index": "5",
                        "name": "八角",
                        "latlng": "39.919361930366,116.20748553672"
                    },
                    {
                        "id": "410",
                        "parent_id": "180",
                        "script_index": "1",
                        "name": "古城",
                        "latlng": "39.917264968331,116.19596119292"
                    },
                    {
                        "id": "7200",
                        "parent_id": "180",
                        "script_index": "12",
                        "name": "杨庄",
                        "latlng": "39.930131652605,116.20383364526"
                    },
                    {
                        "id": "407",
                        "parent_id": "180",
                        "script_index": "2",
                        "name": "苹果园",
                        "latlng": "39.934200391871,116.19260316743"
                    },
                    {
                        "id": "405",
                        "parent_id": "180",
                        "script_index": "6",
                        "name": "金顶街",
                        "latlng": "39.933204516409,116.17544581151"
                    },
                    {
                        "id": "7201",
                        "parent_id": "180",
                        "script_index": "11",
                        "name": "模式口",
                        "latlng": "39.937033911832,116.16598032998"
                    },
                    {
                        "id": "7204",
                        "parent_id": "180",
                        "script_index": "10",
                        "name": "西山",
                        "latlng": "39.949718484176,116.17620123043"
                    },
                    {
                        "id": "7686",
                        "parent_id": "180",
                        "script_index": "18",
                        "name": "八大处",
                        "latlng": "39.952161461343,116.20604075059"
                    },
                    {
                        "id": "686",
                        "parent_id": "180",
                        "script_index": "16",
                        "name": "五里坨",
                        "latlng": "39.961615200011,116.1346771976"
                    },
                    {
                        "id": "685",
                        "parent_id": "180",
                        "script_index": "15",
                        "name": "广宁",
                        "latlng": "39.934058219172,116.15103712526"
                    },
                    {
                        "id": "94076",
                        "parent_id": "180",
                        "script_index": "19",
                        "name": "永乐",
                        "latlng": "39.9068827152,116.237444814"
                    },
                    {
                        "id": "814",
                        "parent_id": "180",
                        "script_index": "9",
                        "name": "其他",
                        "latlng": ""
                    }
                ]
            },
            {
                "id": "185",
                "script_index": "12",
                "parent_id": "12",
                "name": "昌平",
                "latlng": "40.226327467753,116.23554939678",
                "streets": [
                    {
                        "id": "495",
                        "parent_id": "185",
                        "script_index": "19",
                        "name": "龙泽",
                        "latlng": "40.078547930986,116.32887422875"
                    },
                    {
                        "id": "493",
                        "parent_id": "185",
                        "script_index": "5",
                        "name": "回龙观",
                        "latlng": "40.085237138875,116.34006881908"
                    },
                    {
                        "id": "7216",
                        "parent_id": "185",
                        "script_index": "20",
                        "name": "霍营",
                        "latlng": "40.08659523469,116.37399347283"
                    },
                    {
                        "id": "504",
                        "parent_id": "185",
                        "script_index": "16",
                        "name": "立水桥",
                        "latlng": "40.059348222609,116.41892414983"
                    },
                    {
                        "id": "502",
                        "parent_id": "185",
                        "script_index": "6",
                        "name": "天通苑",
                        "latlng": "40.080125867621,116.41970179441"
                    },
                    {
                        "id": "500",
                        "parent_id": "185",
                        "script_index": "17",
                        "name": "北七家",
                        "latlng": "40.124413585024,116.43702930937"
                    },
                    {
                        "id": "797",
                        "parent_id": "185",
                        "script_index": "4",
                        "name": "沙河镇",
                        "latlng": "40.132623840414,116.27737624578"
                    },
                    {
                        "id": "749",
                        "parent_id": "185",
                        "script_index": "23",
                        "name": "昌平县城",
                        "latlng": "40.226377764421,116.23785904039"
                    },
                    {
                        "id": "736",
                        "parent_id": "185",
                        "script_index": "32",
                        "name": "城北",
                        "latlng": "40.230629331934,116.23969965914"
                    },
                    {
                        "id": "737",
                        "parent_id": "185",
                        "script_index": "33",
                        "name": "城南",
                        "latlng": "40.220589028569,116.21702602997"
                    },
                    {
                        "id": "738",
                        "parent_id": "185",
                        "script_index": "24",
                        "name": "南口",
                        "latlng": "40.252871213453,116.14249563983"
                    },
                    {
                        "id": "739",
                        "parent_id": "185",
                        "script_index": "25",
                        "name": "马池口",
                        "latlng": "40.188625181465,116.17489514185"
                    },
                    {
                        "id": "741",
                        "parent_id": "185",
                        "script_index": "26",
                        "name": "阳坊",
                        "latlng": "40.144632407185,116.14623246405"
                    },
                    {
                        "id": "747",
                        "parent_id": "185",
                        "script_index": "27",
                        "name": "百善",
                        "latlng": "40.173053331714,116.32690752102"
                    },
                    {
                        "id": "498",
                        "parent_id": "185",
                        "script_index": "14",
                        "name": "小汤山",
                        "latlng": "40.186313397648,116.39773521537"
                    },
                    {
                        "id": "746",
                        "parent_id": "185",
                        "script_index": "29",
                        "name": "兴寿",
                        "latlng": "40.229680869919,116.41345021512"
                    },
                    {
                        "id": "744",
                        "parent_id": "185",
                        "script_index": "28",
                        "name": "南邵",
                        "latlng": "40.214201525263,116.29271749798"
                    },
                    {
                        "id": "742",
                        "parent_id": "185",
                        "script_index": "30",
                        "name": "十三陵",
                        "latlng": "40.277911726927,116.23148558438"
                    },
                    {
                        "id": "743",
                        "parent_id": "185",
                        "script_index": "31",
                        "name": "长陵",
                        "latlng": "40.297524939587,116.26725417882"
                    },
                    {
                        "id": "94119",
                        "parent_id": "185",
                        "script_index": "34",
                        "name": "东小口",
                        "latlng": "40.0650840677,116.410360001"
                    },
                    {
                        "id": "94120",
                        "parent_id": "185",
                        "script_index": "35",
                        "name": "沙河",
                        "latlng": "40.1370037168,116.394765327"
                    },
                    {
                        "id": "94121",
                        "parent_id": "185",
                        "script_index": "36",
                        "name": "南邵镇",
                        "latlng": "40.2142111193,116.292444916"
                    },
                    {
                        "id": "94574",
                        "parent_id": "185",
                        "script_index": "37",
                        "name": "城西",
                        "latlng": "40.2217235498,116.216456357"
                    },
                    {
                        "id": "824",
                        "parent_id": "185",
                        "script_index": "18",
                        "name": "其他",
                        "latlng": ""
                    }
                ]
            },
            {
                "id": "183",
                "script_index": "10",
                "parent_id": "12",
                "name": "通州",
                "latlng": "39.916240615185,116.66344230062",
                "streets": [
                    {
                        "id": "7208",
                        "parent_id": "183",
                        "script_index": "17",
                        "name": "北关环岛",
                        "latlng": "39.929931000299,116.66218294419"
                    },
                    {
                        "id": "7210",
                        "parent_id": "183",
                        "script_index": "15",
                        "name": "新华大街",
                        "latlng": "39.914819608885,116.67055224193"
                    },
                    {
                        "id": "458",
                        "parent_id": "183",
                        "script_index": "0",
                        "name": "北苑",
                        "latlng": "39.912179268988,116.64359785435"
                    },
                    {
                        "id": "7211",
                        "parent_id": "183",
                        "script_index": "16",
                        "name": "果园",
                        "latlng": "39.899500577357,116.65282065883"
                    },
                    {
                        "id": "7207",
                        "parent_id": "183",
                        "script_index": "19",
                        "name": "九棵树",
                        "latlng": "39.894519579004,116.66476718947"
                    },
                    {
                        "id": "462",
                        "parent_id": "183",
                        "script_index": "5",
                        "name": "梨园",
                        "latlng": "39.881734956351,116.67164710682"
                    },
                    {
                        "id": "7212",
                        "parent_id": "183",
                        "script_index": "29",
                        "name": "梨园城铁",
                        "latlng": "39.889930732439,116.675475663"
                    },
                    {
                        "id": "718",
                        "parent_id": "183",
                        "script_index": "28",
                        "name": "临河里",
                        "latlng": "39.881788591941,116.68635964591"
                    },
                    {
                        "id": "7209",
                        "parent_id": "183",
                        "script_index": "18",
                        "name": "土桥",
                        "latlng": "39.877672867874,116.69184044986"
                    },
                    {
                        "id": "469",
                        "parent_id": "183",
                        "script_index": "3",
                        "name": "玉桥",
                        "latlng": "39.900096034768,116.68440545752"
                    },
                    {
                        "id": "7206",
                        "parent_id": "183",
                        "script_index": "21",
                        "name": "乔庄",
                        "latlng": "39.901659845835,116.69390220021"
                    },
                    {
                        "id": "7213",
                        "parent_id": "183",
                        "script_index": "20",
                        "name": "武夷花园",
                        "latlng": "39.923855103251,116.70760915746"
                    },
                    {
                        "id": "464",
                        "parent_id": "183",
                        "script_index": "7",
                        "name": "潞城",
                        "latlng": "39.921962857096,116.7352745812"
                    },
                    {
                        "id": "473",
                        "parent_id": "183",
                        "script_index": "10",
                        "name": "马驹桥",
                        "latlng": "39.759480102676,116.5630885822"
                    },
                    {
                        "id": "9100",
                        "parent_id": "183",
                        "script_index": "30",
                        "name": "次渠",
                        "latlng": "39.81213895308,116.59878723742"
                    },
                    {
                        "id": "9106",
                        "parent_id": "183",
                        "script_index": "31",
                        "name": "潞苑",
                        "latlng": "39.809815,116.740079"
                    },
                    {
                        "id": "94108",
                        "parent_id": "183",
                        "script_index": "32",
                        "name": "北关",
                        "latlng": "39.9264596644,116.658784054"
                    },
                    {
                        "id": "820",
                        "parent_id": "183",
                        "script_index": "14",
                        "name": "其他",
                        "latlng": ""
                    },
                    {
                        "id": "94109",
                        "parent_id": "183",
                        "script_index": "33",
                        "name": "永顺",
                        "latlng": "39.9234784779,116.656246071"
                    },
                    {
                        "id": "94111",
                        "parent_id": "183",
                        "script_index": "35",
                        "name": "八里桥",
                        "latlng": "39.9217736884,116.64782284"
                    },
                    {
                        "id": "94112",
                        "parent_id": "183",
                        "script_index": "36",
                        "name": "中仓",
                        "latlng": "39.9094388873,116.671496424"
                    },
                    {
                        "id": "94113",
                        "parent_id": "183",
                        "script_index": "37",
                        "name": "西门",
                        "latlng": "39.8098148839,116.740079181"
                    },
                    {
                        "id": "94114",
                        "parent_id": "183",
                        "script_index": "38",
                        "name": "东关",
                        "latlng": "39.913081481,116.685781548"
                    },
                    {
                        "id": "94115",
                        "parent_id": "183",
                        "script_index": "39",
                        "name": "运河大街",
                        "latlng": "39.8972513756,116.698437954"
                    },
                    {
                        "id": "94116",
                        "parent_id": "183",
                        "script_index": "40",
                        "name": "张家湾",
                        "latlng": "39.8574762701,116.726623906"
                    },
                    {
                        "id": "94117",
                        "parent_id": "183",
                        "script_index": "41",
                        "name": "八通轻轨沿线",
                        "latlng": "39.8098148839,116.740079181"
                    },
                    {
                        "id": "94118",
                        "parent_id": "183",
                        "script_index": "42",
                        "name": "漷县",
                        "latlng": "39.7857296761,116.800054094"
                    }
                ]
            },
            {
                "id": "182",
                "script_index": "9",
                "parent_id": "12",
                "name": "大兴",
                "latlng": "39.742874592395,116.33844326734",
                "streets": [
                    {
                        "id": "438",
                        "parent_id": "182",
                        "script_index": "3",
                        "name": "黄村",
                        "latlng": "39.737663649501,116.33952016157"
                    },
                    {
                        "id": "440",
                        "parent_id": "182",
                        "script_index": "4",
                        "name": "西红门",
                        "latlng": "39.796624996265,116.35838906213"
                    },
                    {
                        "id": "442",
                        "parent_id": "182",
                        "script_index": "5",
                        "name": "旧宫",
                        "latlng": "39.81087408429,116.45224907701"
                    },
                    {
                        "id": "444",
                        "parent_id": "182",
                        "script_index": "6",
                        "name": "亦庄",
                        "latlng": "39.806606665012,116.48944551832"
                    },
                    {
                        "id": "791",
                        "parent_id": "182",
                        "script_index": "15",
                        "name": "庞各庄",
                        "latlng": "39.635134915401,116.325889632"
                    },
                    {
                        "id": "92153",
                        "parent_id": "182",
                        "script_index": "18",
                        "name": "新宫",
                        "latlng": "39.820398,116.365802"
                    },